{
  "request": {
    "method": "GET",
    "url": "/api/near?lat=42.6567825&lon=23.2857181&fuel=lpg&key=xxxxxxxxxxx"
  },
  "response": {
    "status": 200,
    "headers": {
      "Content-Type": "application/json"
    },
    "jsonBody": {
      "status": "OK",
      "lat": 42.6567825,
      "lon": 23.2857181,
      "distance": 100,
      "limit": 100,
      "num_results": 100,
      "gasstations": [
        {
          "id": 640,
          "lat": 42.65147,
          "lon": 23.287512,
          "brand_name": "OMV",
          "brand_id": 3,
          "name": "Бояна",
          "city": "София",
          "address": "ул. Околовръстен път",
          "distance": 0.608643784484676
        },
        {
          "id": 370,
          "lat": 42.650642,
          "lon": 23.289873,
          "brand_name": "Shell",
          "brand_id": 5,
          "name": "3007 София Бояна",
          "city": "София",
          "address": "околовръстно шосе, km 49+650",
          "distance": 0.7626317249485463
        },
        {
          "id": 1804,
          "lat": 42.6618,
          "lon": 23.295099,
          "brand_name": "Бензиностанция",
          "brand_id": 20,
          "name": "Makoil",
          "city": "София",
          "address": "ул. Костенски водопад",
          "distance": 0.9485751941217492
        },
        {
          "id": 211,
          "lat": 42.650101,
          "lon": 23.2931,
          "brand_name": "Eko",
          "brand_id": 1,
          "name": "1031 София – Бояна",
          "city": "София",
          "address": "ул. Околовръстен път",
          "distance": 0.9573403528439898
        },
        {
          "id": 1304,
          "lat": 42.659534,
          "lon": 23.298437,
          "brand_name": "Petrol",
          "brand_id": 6,
          "name": 7146,
          "city": "София",
          "address": "бул. Тодор Каблешков (последна спирка 74,76)",
          "distance": 1.0841633505013952
        },
        {
          "id": 567,
          "lat": 42.658001,
          "lon": 23.2717,
          "brand_name": "OMV",
          "brand_id": 3,
          "name": "Бъкстон",
          "city": "София",
          "address": "бул. Братя Бъкстон №83",
          "distance": 1.1543141688536906
        },
        {
          "id": 1876,
          "lat": 42.66748,
          "lon": 23.280899,
          "brand_name": "Газстанция",
          "brand_id": 28,
          "name": "Газ Лоджистикс",
          "city": "София",
          "address": "ул. Тодор Каблешков",
          "distance": 1.2531264004026572
        },
        {
          "id": 632,
          "lat": 42.667545,
          "lon": 23.290752,
          "brand_name": "OMV",
          "brand_id": 3,
          "name": "Бул. България",
          "city": "София",
          "address": "бул. България №45",
          "distance": 1.2655886947272668
        },
        {
          "id": 43629,
          "lat": 42.659054,
          "lon": 23.305847,
          "brand_name": "Газстанция",
          "brand_id": 28,
          "name": "NPC",
          "city": "София",
          "address": "ул. Хенрик Ибсен",
          "distance": 1.6652998302796356
        },
        {
          "id": 235,
          "lat": 42.663986,
          "lon": 23.260677,
          "brand_name": "Eko",
          "brand_id": 1,
          "name": "1022 София – Цар Борис III",
          "city": "София",
          "address": "бул. Никола Петков",
          "distance": 2.1987074032651286
        },
        {
          "id": 1878,
          "lat": 42.674503,
          "lon": 23.270239,
          "brand_name": "Бензиностанция",
          "brand_id": 20,
          "name": "Бент Ойл",
          "city": "София",
          "address": "ул. Коломан №1",
          "distance": 2.341919752589977
        },
        {
          "id": 267,
          "lat": 42.651318,
          "lon": 23.316212,
          "brand_name": "Eko",
          "brand_id": 1,
          "name": "1017 София – Черни връх",
          "city": "София",
          "address": "кв. Лозенец, бул. Черни връх (преди Околовръстен път)",
          "distance": 2.5667131136404064
        },
        {
          "id": 1408,
          "lat": 42.659698,
          "lon": 23.322701,
          "brand_name": "Petrol",
          "brand_id": 6,
          "name": 7154,
          "city": "София",
          "address": "ул. Сребърна №21",
          "distance": 3.041520610250913
        },
        {
          "id": 272,
          "lat": 42.680866,
          "lon": 23.308319,
          "brand_name": "Eko",
          "brand_id": 1,
          "name": "1060 София - България",
          "city": "София",
          "address": "бул. България и ул. Д-р Стефан Сарафов",
          "distance": 3.2536422760772106
        },
        {
          "id": 214,
          "lat": 42.638401,
          "lon": 23.3193,
          "brand_name": "Eko",
          "brand_id": 1,
          "name": "1903 София - Царско село",
          "city": "София",
          "address": "ул. Околовръстен път (Царско село)",
          "distance": 3.423629234241451
        },
        {
          "id": 308,
          "lat": 42.63879,
          "lon": 23.320749,
          "brand_name": "Shell",
          "brand_id": 5,
          "name": "2008 София Симеоново",
          "city": "София",
          "address": "Околовръстен път, km 46+717",
          "distance": 3.494496319969669
        },
        {
          "id": 396,
          "lat": 42.687611,
          "lon": 23.275389,
          "brand_name": "Shell",
          "brand_id": 5,
          "name": "3018 София Красна Поляна",
          "city": "София",
          "address": "бул. Никола Мушанов №120",
          "distance": 3.5304196512170085
        },
        {
          "id": 2105,
          "lat": 42.688942,
          "lon": 23.276165,
          "brand_name": "Газстанция",
          "brand_id": 28,
          "name": "Газстанция",
          "city": "София",
          "address": "бул. Никола Мушанов",
          "distance": 3.66026266882621
        },
        {
          "id": 593,
          "lat": 42.689621,
          "lon": 23.276772,
          "brand_name": "OMV",
          "brand_id": 3,
          "name": "София - Никола Мушанов",
          "city": "София",
          "address": "бул. Никола Мушанов №114",
          "distance": 3.7240051601322346
        },
        {
          "id": 208,
          "lat": 42.668171,
          "lon": 23.328953,
          "brand_name": "Eko",
          "brand_id": 1,
          "name": "1045 София - Вапцаров",
          "city": "София",
          "address": "бул. Никола Вапцаров №2А",
          "distance": 3.755181379921936
        },
        {
          "id": 181,
          "lat": 42.672379,
          "lon": 23.24338,
          "brand_name": "Lukoil",
          "brand_id": 2,
          "name": "B133",
          "city": "София",
          "address": "кв. Горна баня ",
          "distance": 3.8719085418007557
        },
        {
          "id": 623,
          "lat": 42.691101,
          "lon": 23.295601,
          "brand_name": "OMV",
          "brand_id": 3,
          "name": "Пробива",
          "city": "София",
          "address": "ул. Гюешево №83",
          "distance": 3.9006446196559037
        },
        {
          "id": 2106,
          "lat": 42.658298,
          "lon": 23.336399,
          "brand_name": "Бензиностанция",
          "brand_id": 20,
          "name": "Премуим Ойл",
          "city": "София",
          "address": "бул. Симеоновско шосе №6",
          "distance": 4.147845196385447
        },
        {
          "id": 365,
          "lat": 42.693901,
          "lon": 23.2934,
          "brand_name": "Shell",
          "brand_id": 5,
          "name": "3037 София Възкресение",
          "city": "София",
          "address": "бул. Възкресение №1",
          "distance": 4.174897166110399
        },
        {
          "id": 164,
          "lat": 42.694431,
          "lon": 23.294298,
          "brand_name": "Lukoil",
          "brand_id": 2,
          "name": "B032",
          "city": "София",
          "address": "бул. К. Величков и бул. Възкресение",
          "distance": 4.244711898412939
        },
        {
          "id": 171,
          "lat": 42.657799,
          "lon": 23.339199,
          "brand_name": "Lukoil",
          "brand_id": 2,
          "name": "B134",
          "city": "София",
          "address": "бул. Г. М. Димитров (до Зоопарка)",
          "distance": 4.374863617860916
        },
        {
          "id": 618,
          "lat": 42.682217,
          "lon": 23.242872,
          "brand_name": "OMV",
          "brand_id": 3,
          "name": "Овча купел",
          "city": "София",
          "address": "ул. Бойчо Бойчев №66",
          "distance": 4.502182079537507
        },
        {
          "id": 1306,
          "lat": 42.636799,
          "lon": 23.334499,
          "brand_name": "Petrol",
          "brand_id": 6,
          "name": 7151,
          "city": "София",
          "address": "бул. Симеоновско шосе (срещу х-л Амбасадор)",
          "distance": 4.566816655168631
        },
        {
          "id": 246,
          "lat": 42.697498,
          "lon": 23.2962,
          "brand_name": "Eko",
          "brand_id": 1,
          "name": "1065 София – Константин Величков",
          "city": "София",
          "address": "бул. К. Величков и ул. Д-р Каликов",
          "distance": 4.607733784856659
        },
        {
          "id": 1501,
          "lat": 42.690102,
          "lon": 23.2509,
          "brand_name": "Rompetrol",
          "brand_id": 4,
          "name": "София 8",
          "city": "София",
          "address": "бул. Президент Линкълн №68A",
          "distance": 4.672141069613723
        },
        {
          "id": 1500,
          "lat": 42.689301,
          "lon": 23.2493,
          "brand_name": "SNG",
          "brand_id": 12,
          "name": "Овча купел",
          "city": "София",
          "address": "ж.к. Овча купел 2, ул. Обиколна и ул. Промишлена",
          "distance": 4.683929448056253
        },
        {
          "id": 1943,
          "lat": 42.683674,
          "lon": 23.240582,
          "brand_name": "Бензиностанция",
          "brand_id": 20,
          "name": "Алекс 333",
          "city": "София",
          "address": "бул. Президент Линкълн",
          "distance": 4.749665100092475
        },
        {
          "id": 283,
          "lat": 42.654499,
          "lon": 23.2276,
          "brand_name": "Eko",
          "brand_id": 1,
          "name": "1904 София - Княжево",
          "city": "София",
          "address": "бул. Цар Борис III №362",
          "distance": 4.759500946341951
        },
        {
          "id": 303,
          "lat": 42.66,
          "lon": 23.348,
          "brand_name": "Shell",
          "brand_id": 5,
          "name": "3036 София Дианабад",
          "city": "София",
          "address": "бул. Г. М. Димитров",
          "distance": 5.105524420789927
        },
        {
          "id": 175,
          "lat": 42.702301,
          "lon": 23.2974,
          "brand_name": "Lukoil",
          "brand_id": 2,
          "name": "B043",
          "city": "София",
          "address": "бул. Тодор Александров",
          "distance": 5.150719317677162
        },
        {
          "id": 1280,
          "lat": 42.703148,
          "lon": 23.297472,
          "brand_name": "Petrol",
          "brand_id": 6,
          "name": 7104,
          "city": "София",
          "address": "бул. К.Величков и ул. Пиротска",
          "distance": 5.244363870467528
        },
        {
          "id": 2016,
          "lat": 42.651173,
          "lon": 23.218575,
          "brand_name": "SNG",
          "brand_id": 12,
          "name": "Княжево",
          "city": "София",
          "address": "бул. Цар Борис III №424",
          "distance": 5.526231001547229
        },
        {
          "id": 170,
          "lat": 42.650902,
          "lon": 23.2178,
          "brand_name": "Lukoil",
          "brand_id": 2,
          "name": "B135",
          "city": "София",
          "address": "кв. Княжево (изход за Перник)",
          "distance": 5.592655899077047
        },
        {
          "id": 610,
          "lat": 42.703602,
          "lon": 23.3109,
          "brand_name": "OMV",
          "brand_id": 3,
          "name": "Опълченска",
          "city": "София",
          "address": "ул. Опълченска №35",
          "distance": 5.5982574020984295
        },
        {
          "id": 1294,
          "lat": 42.6656,
          "lon": 23.354099,
          "brand_name": "Petrol",
          "brand_id": 6,
          "name": 7129,
          "city": "София",
          "address": "бул. Драган Цанков (срещу КАТ)",
          "distance": 5.6768237253477505
        },
        {
          "id": 317,
          "lat": 42.706299,
          "lon": 23.306,
          "brand_name": "Shell",
          "brand_id": 5,
          "name": "5002 София Сливница",
          "city": "София",
          "address": "бул. Сливница",
          "distance": 5.750150074430057
        },
        {
          "id": 625,
          "lat": 42.62875,
          "lon": 23.345062,
          "brand_name": "OMV",
          "brand_id": 3,
          "name": "Малинова долина",
          "city": "София",
          "address": "ул. Околовръстен път",
          "distance": 5.768669716337663
        },
        {
          "id": 1492,
          "lat": 42.705185,
          "lon": 23.311218,
          "brand_name": "Shell",
          "brand_id": 5,
          "name": "5005 Опълченска",
          "city": "София",
          "address": "ул. Опълченска",
          "distance": 5.771664792203517
        },
        {
          "id": 290,
          "lat": 42.628502,
          "lon": 23.3459,
          "brand_name": "Eko",
          "brand_id": 1,
          "name": "1902 София - Малинова долина",
          "city": "София",
          "address": "ул. Околовръстен път",
          "distance": 5.841221337487689
        },
        {
          "id": 637,
          "lat": 42.651012,
          "lon": 23.357609,
          "brand_name": "OMV",
          "brand_id": 3,
          "name": "8-ми декември",
          "city": "София",
          "address": "ул. 8-ми декември",
          "distance": 5.914085430540875
        },
        {
          "id": 582,
          "lat": 42.649258,
          "lon": 23.214113,
          "brand_name": "Gazprom",
          "brand_id": 14,
          "name": "София - Черен кос",
          "city": "София",
          "address": "бул. Цар Борис III №509",
          "distance": 5.91536304468383
        },
        {
          "id": 178,
          "lat": 42.691101,
          "lon": 23.229799,
          "brand_name": "Lukoil",
          "brand_id": 2,
          "name": "B077",
          "city": "София",
          "address": "Околовръстен път, до кв. Суходол",
          "distance": 5.954929198711173
        },
        {
          "id": 571,
          "lat": 42.6632,
          "lon": 23.358299,
          "brand_name": "OMV",
          "brand_id": 3,
          "name": "Мусагеница",
          "city": "София",
          "address": "бул. Доктор Г. М. Димитров",
          "distance": 5.977813272107214
        },
        {
          "id": 590,
          "lat": 42.710648,
          "lon": 23.272182,
          "brand_name": "OMV",
          "brand_id": 3,
          "name": "Люлин Тунела",
          "city": "София",
          "address": "бул. Пиротски",
          "distance": 6.090856279866348
        },
        {
          "id": 173,
          "lat": 42.7117,
          "lon": 23.268801,
          "brand_name": "Lukoil",
          "brand_id": 2,
          "name": "B041",
          "city": "София",
          "address": "ж.к. Люлин-7, бул. Пиротски (до тунела)",
          "distance": 6.261205984940444
        },
        {
          "id": 585,
          "lat": 42.710583,
          "lon": 23.308393,
          "brand_name": "OMV",
          "brand_id": 3,
          "name": "Банишора",
          "city": "София",
          "address": "бул. Генерал Столетов №27",
          "distance": 6.262866487712537
        },
        {
          "id": 376,
          "lat": 42.714298,
          "lon": 23.2763,
          "brand_name": "Shell",
          "brand_id": 5,
          "name": "3006 София Люлин",
          "city": "София",
          "address": "бул. Петър Дертлиев",
          "distance": 6.441619484789093
        },
        {
          "id": 611,
          "lat": 42.716099,
          "lon": 23.282301,
          "brand_name": "OMV",
          "brand_id": 3,
          "name": "София - Сливница",
          "city": "София",
          "address": "бул. Сливница №132",
          "distance": 6.601581236139873
        },
        {
          "id": 167,
          "lat": 42.716202,
          "lon": 23.280899,
          "brand_name": "Lukoil",
          "brand_id": 2,
          "name": "Б015",
          "city": "София",
          "address": "бул. Сливница до Орион",
          "distance": 6.618853537934563
        },
        {
          "id": 59330,
          "lat": 42.708698,
          "lon": 23.325701,
          "brand_name": "Газстанция",
          "brand_id": 28,
          "name": "Авто Газ",
          "city": "София",
          "address": "ул. Клокотница",
          "distance": 6.633723162180146
        },
        {
          "id": 270,
          "lat": 42.715008,
          "lon": 23.263046,
          "brand_name": "Eko",
          "brand_id": 1,
          "name": "1905 София - Царица Йоана",
          "city": "София",
          "address": "бул. Царица Йоана (Люлин 7)",
          "distance": 6.734344428564835
        },
        {
          "id": 1307,
          "lat": 42.699299,
          "lon": 23.3452,
          "brand_name": "Petrol",
          "brand_id": 6,
          "name": 7152,
          "city": "София",
          "address": "бул. Данаил Николаев (моста Чавдар)",
          "distance": 6.7818780866608135
        },
        {
          "id": 260,
          "lat": 42.667801,
          "lon": 23.3682,
          "brand_name": "Eko",
          "brand_id": 1,
          "name": "1901 София - Младост",
          "city": "София",
          "address": "бул. Цариградско шосе (кръговото на 4-и км)",
          "distance": 6.854816647076144
        },
        {
          "id": 1532,
          "lat": 42.698757,
          "lon": 23.349047,
          "brand_name": "AVIA",
          "brand_id": 169,
          "name": "София 1",
          "city": "София",
          "address": "бул. Данаил Николаев №36",
          "distance": 6.970333800067606
        },
        {
          "id": 58814,
          "lat": 42.717098,
          "lon": 23.2612,
          "brand_name": "Бензиностанция",
          "brand_id": 20,
          "name": "Ok Gas",
          "city": "София",
          "address": "ул. ген. Асен Николов",
          "distance": 6.99978016102285
        },
        {
          "id": 228,
          "lat": 42.67807,
          "lon": 23.367064,
          "brand_name": "Eko",
          "brand_id": 1,
          "name": "1061 София – Шипченски проход",
          "city": "София",
          "address": "бул. Шипченски  проход (пред завод Електроника)",
          "distance": 7.059599345558364
        },
        {
          "id": 280,
          "lat": 42.72028,
          "lon": 23.279766,
          "brand_name": "Eko",
          "brand_id": 1,
          "name": "1906 София - Орион",
          "city": "София",
          "address": "ул. Адам Мицкевич №1 (модерно предградие)",
          "distance": 7.077305508182483
        },
        {
          "id": 1281,
          "lat": 42.711662,
          "lon": 23.240961,
          "brand_name": "Petrol",
          "brand_id": 6,
          "name": 7106,
          "city": "София",
          "address": "ж.к. Люлин 5 (околовръстно на Люлин)",
          "distance": 7.114966786515725
        },
        {
          "id": 1533,
          "lat": 42.720402,
          "lon": 23.2743,
          "brand_name": "Eko",
          "brand_id": 1,
          "name": "1021 София - Сливница",
          "city": "София",
          "address": "бул. Сливница №8А",
          "distance": 7.1354362750760885
        },
        {
          "id": 635,
          "lat": 42.711754,
          "lon": 23.331001,
          "brand_name": "OMV",
          "brand_id": 3,
          "name": "Грънчарска",
          "city": "София",
          "address": "ул. 202-ра",
          "distance": 7.1458808251833155
        },
        {
          "id": 1635,
          "lat": 42.721375,
          "lon": 23.282063,
          "brand_name": "Метанстанция",
          "brand_id": 19,
          "name": "Метагаз",
          "city": "София",
          "address": "ул. 3019-та",
          "distance": 7.188515910061897
        },
        {
          "id": 1493,
          "lat": 42.6964,
          "lon": 23.355885,
          "brand_name": "Shell",
          "brand_id": 5,
          "name": "5006 Подуене",
          "city": "София",
          "address": "бул. Ботевградско шосе",
          "distance": 7.232470952868871
        },
        {
          "id": 289,
          "lat": 42.710499,
          "lon": 23.3358,
          "brand_name": "Eko",
          "brand_id": 1,
          "name": "1082 София - Каменоделска",
          "city": "София",
          "address": "ул. Каменоделска",
          "distance": 7.241206503276605
        },
        {
          "id": 298,
          "lat": 42.714298,
          "lon": 23.3279,
          "brand_name": "Shell",
          "brand_id": 5,
          "name": "5003 София Надежда",
          "city": "София",
          "address": "ул. 202-ра №4",
          "distance": 7.265643064254219
        },
        {
          "id": 631,
          "lat": 42.707901,
          "lon": 23.3419,
          "brand_name": "OMV",
          "brand_id": 3,
          "name": "София - Резбарска",
          "city": "София",
          "address": "ул. Резбарска №4",
          "distance": 7.307491372748887
        },
        {
          "id": 204,
          "lat": 42.718384,
          "lon": 23.254385,
          "brand_name": "Eko",
          "brand_id": 1,
          "name": "1062 София - Люлин 1",
          "city": "София",
          "address": "бул. Панчо Владигеров и ул. 701",
          "distance": 7.312857281857747
        },
        {
          "id": 570,
          "lat": 42.701801,
          "lon": 23.3512,
          "brand_name": "OMV",
          "brand_id": 3,
          "name": "Черковна",
          "city": "София",
          "address": "бул. Владимир Вазов №1",
          "distance": 7.328855114198307
        },
        {
          "id": 382,
          "lat": 42.702518,
          "lon": 23.350794,
          "brand_name": "Shell",
          "brand_id": 5,
          "name": "3026 София Владимир Вазов",
          "city": "София",
          "address": "бул. Владимир Вазов",
          "distance": 7.35948988948882
        },
        {
          "id": 331,
          "lat": 42.719162,
          "lon": 23.253407,
          "brand_name": "Shell",
          "brand_id": 5,
          "name": "3028 София Люлин Център",
          "city": "София",
          "address": "ж.к. Люлин",
          "distance": 7.422045206867298
        },
        {
          "id": 352,
          "lat": 42.6479,
          "lon": 23.3759,
          "brand_name": "Shell",
          "brand_id": 5,
          "name": "3020 София Младост",
          "city": "София",
          "address": "бул. Александър Малинов",
          "distance": 7.441077144136549
        },
        {
          "id": 61570,
          "lat": 42.723835,
          "lon": 23.293762,
          "brand_name": "Газстанция",
          "brand_id": 28,
          "name": "Sorti gas",
          "city": "София",
          "address": "ул. Хан Кубрат №7",
          "distance": 7.484827844271822
        },
        {
          "id": 174,
          "lat": 42.720387,
          "lon": 23.255692,
          "brand_name": "Lukoil",
          "brand_id": 2,
          "name": "B040",
          "city": "София",
          "address": "ж.к. Люлин-8, бул. Панчо Владигеров",
          "distance": 7.486151934293992
        },
        {
          "id": 626,
          "lat": 42.661701,
          "lon": 23.377399,
          "brand_name": "OMV",
          "brand_id": 3,
          "name": "Окръжна болница",
          "city": "София",
          "address": "бул. Цариградско шосе",
          "distance": 7.516926871236526
        },
        {
          "id": 172,
          "lat": 42.674999,
          "lon": 23.374701,
          "brand_name": "Lukoil",
          "brand_id": 2,
          "name": "B026",
          "city": "София",
          "address": "бул. Шипченски проход (до комплекс Червено знаме)",
          "distance": 7.552245840056716
        },
        {
          "id": 617,
          "lat": 42.722961,
          "lon": 23.306761,
          "brand_name": "OMV",
          "brand_id": 3,
          "name": "Ломско шосе",
          "city": "София",
          "address": "бул. Ломско шосе №2",
          "distance": 7.557068777419526
        },
        {
          "id": 1549,
          "lat": 42.648991,
          "lon": 23.378176,
          "brand_name": "Eko",
          "brand_id": 1,
          "name": "1092 София – Александър Малинов",
          "city": "София",
          "address": "бул. Александър Малинов №37",
          "distance": 7.6107325522931175
        },
        {
          "id": 296,
          "lat": 42.6619,
          "lon": 23.379601,
          "brand_name": "Shell",
          "brand_id": 5,
          "name": "3022 София Средец",
          "city": "София",
          "address": "бул. Цариградско шосе",
          "distance": 7.698035208813755
        },
        {
          "id": 588,
          "lat": 42.65118,
          "lon": 23.379589,
          "brand_name": "OMV",
          "brand_id": 3,
          "name": "Младост 1А",
          "city": "София",
          "address": "бул. Александър Малинов",
          "distance": 7.701937321248789
        },
        {
          "id": 550,
          "lat": 42.6992,
          "lon": 23.3605,
          "brand_name": "Rompetrol",
          "brand_id": 4,
          "name": "София 5",
          "city": "София",
          "address": "кв. Сухата река, ул. Александър Екзарх №11",
          "distance": 7.721284999421548
        },
        {
          "id": 1797,
          "lat": 42.646999,
          "lon": 23.380133,
          "brand_name": "Бензиностанция",
          "brand_id": 20,
          "name": "Ултра Младост",
          "city": "София",
          "address": "бул. Андрей Лябчев №80 (ж.к. Младост 3)",
          "distance": 7.797671874849384
        },
        {
          "id": 184,
          "lat": 42.630264,
          "lon": 23.374298,
          "brand_name": "Lukoil",
          "brand_id": 2,
          "name": "Ф526",
          "city": "София",
          "address": "ул. Самара №1 (ж.к. Младост 4)",
          "distance": 7.8222835465373475
        },
        {
          "id": 398,
          "lat": 42.6586,
          "lon": 23.381701,
          "brand_name": "Shell",
          "brand_id": 5,
          "name": "3017 София Изток",
          "city": "София",
          "address": "бул. Цариградско шосе",
          "distance": 7.851508431395648
        },
        {
          "id": 563,
          "lat": 42.690899,
          "lon": 23.3699,
          "brand_name": "OMV",
          "brand_id": 3,
          "name": "Слатинска",
          "city": "София",
          "address": "ул. Слатинска №13",
          "distance": 7.858417408008971
        },
        {
          "id": 1302,
          "lat": 42.727901,
          "lon": 23.2882,
          "brand_name": "Petrol",
          "brand_id": 6,
          "name": 7144,
          "city": "София",
          "address": "ул. Хан Кубрат (околовръстното на Надежда)",
          "distance": 7.910669235405009
        },
        {
          "id": 292,
          "lat": 42.710541,
          "lon": 23.349339,
          "brand_name": "Eko",
          "brand_id": 1,
          "name": "1012 София - Резбарска",
          "city": "София",
          "address": "ул. Резбарска и ул. Никола Войновски",
          "distance": 7.923125139137328
        },
        {
          "id": 237,
          "lat": 42.70454,
          "lon": 23.358009,
          "brand_name": "Eko",
          "brand_id": 1,
          "name": "1040 София - Владимир Вазов",
          "city": "София",
          "address": "бул. Владимир Вазов №26 (при ул. Велека)",
          "distance": 7.944900970071079
        },
        {
          "id": 1708,
          "lat": 42.657501,
          "lon": 23.383301,
          "brand_name": "Petrol",
          "brand_id": 6,
          "name": "Цариградско шосе",
          "city": "София",
          "address": "бул. Цариградско шосе №62",
          "distance": 7.980256563235463
        },
        {
          "id": 1289,
          "lat": 42.6759,
          "lon": 23.3799,
          "brand_name": "Petrol",
          "brand_id": 6,
          "name": 7121,
          "city": "София",
          "address": "бул. проф. Цветан Лазаров (кв. Слатина)",
          "distance": 7.988625055915605
        },
        {
          "id": 1932,
          "lat": 42.718544,
          "lon": 23.235735,
          "brand_name": "Бензиностанция",
          "brand_id": 20,
          "name": "ЕКО ОЙЛ",
          "city": "София",
          "address": "ул. Филиповско шосе №786",
          "distance": 7.9908535333184085
        },
        {
          "id": 1498,
          "lat": 42.723999,
          "lon": 23.2479,
          "brand_name": "SNG",
          "brand_id": 12,
          "name": "Люлин",
          "city": "София",
          "address": "ж.к. Люлин 2, ул. Бижо Бакалов №1",
          "distance": 8.088046839438546
        },
        {
          "id": 54775,
          "lat": 42.703098,
          "lon": 23.209101,
          "brand_name": "Lukoil",
          "brand_id": 2,
          "name": "Ф560",
          "city": "АМ Струма",
          "address": "1 km",
          "distance": 8.10862249785328
        },
        {
          "id": 1303,
          "lat": 42.686676,
          "lon": 23.376602,
          "brand_name": "Petrol",
          "brand_id": 6,
          "name": 7145,
          "city": "София",
          "address": "кв. Хр. Смирненски",
          "distance": 8.139939412381484
        },
        {
          "id": 1768,
          "lat": 42.66864,
          "lon": 23.384169,
          "brand_name": "Gazprom",
          "brand_id": 14,
          "name": "Цветан Лазаров",
          "city": "София",
          "address": "бул. Цветан Лазаров",
          "distance": 8.157349109396034
        },
        {
          "id": 207,
          "lat": 42.66951,
          "lon": 23.384174,
          "brand_name": "Eko",
          "brand_id": 1,
          "name": "1085 София - Дружба I",
          "city": "София",
          "address": "бул. Професор Цветан Лазаров",
          "distance": 8.173943666094484
        },
        {
          "id": 608,
          "lat": 42.656933,
          "lon": 23.385836,
          "brand_name": "OMV",
          "brand_id": 3,
          "name": "Цариградско шосе",
          "city": "София",
          "address": "бул. Цариградско шосе",
          "distance": 8.187182268674663
        }
      ],
      "fuel": "lpg"
    }
  }
}
